[{"geo_point_2d": {"lon": -75.573551, "lat": 39.73808}, "geo_shape": {"type": "Feature", "geometry": {"coordinates": [-75.573551, 39.73808], "type": "Point"}, "properties": {}}, "objectid": "6110", "ncesid": "01604362", "name": "ST ELIZABETH SCHOOL", "address": "1500 CEDAR ST", "city": "WILMINGTON", "state": "DE", "zip": "19805", "zip4": "4249", "telephone": "(302) 656-3369", "type": "1", "status": "1", "population": 414, "county": "NEW CASTLE", "countyfips": "10003", "country": "USA", "latitude": 39.73808, "longitude": -75.573551, "naics_code": "611110", "naics_desc": "ELEMENTARY AND SECONDARY SCHOOLS", "source": "https://nces.ed.gov/surveys/pss/privateschoolsearch/school_list.asp?SchoolID=01604362", "source_date": "2024-01-31", "val_method": "IMAGERY/OTHER", "val_date": "2024-03-18", "website": "NOT AVAILABLE", "level": "3", "enrollment": "384", "st_grade": "2", "end_grade": "17", "ft_teachers": "30", "shelter_id": "NOT AVAILABLE"},{"geo_point_2d": {"lon": -75.687311, "lat": 39.71835}, "geo_shape": {"type": "Feature", "geometry": {"coordinates": [-75.687311, 39.71835], "type": "Point"}, "properties": {}}, "objectid": "999", "ncesid": "00249577", "name": "ST MARK'S HIGH SCHOOL", "address": "2501 PIKE CREEK RD", "city": "WILMINGTON", "state": "DE", "zip": "19808", "zip4": "3600", "telephone": "(302) 757-8704", "type": "1", "status": "1", "population": 768, "county": "NEW CASTLE", "countyfips": "00310", "country": "USA", "latitude": 39.71835, "longitude": -75.687311, "naics_code": "611110", "naics_desc": "ELEMENTARY AND SECONDARY SCHOOLS", "source": "https://nces.ed.gov/surveys/pss/privateschoolsearch/school_list.asp?SchoolID=00249577", "source_date": "2024-01-31", "val_method": "IMAGERY/OTHER", "val_date": "2011-10-23", "website": "NOT AVAILABLE", "level": "2", "enrollment": "716", "st_grade": "14", "end_grade": "17", "ft_teachers": "52", "shelter_id": "10812005"},{"geo_point_2d": {"lon": -75.5447784149999, "lat": 39.7413258730001}, "geo_shape": {"type": "Feature", "geometry": {"coordinates": [-75.5447784149999, 39.7413258730001], "type": "Point"}, "properties": {}}, "objectid": "14182", "ncesid": "A1900967", "name": "DARUL AMAANAH ACADEMY", "address": "408 E.8TH ST", "city": "WILMINGTON", "state": "DE", "zip": "19801", "zip4": "3608", "telephone": "(302) 521-2064", "type": "1", "status": "1", "population": 36, "county": "NEW CASTLE", "countyfips": "10003", "country": "USA", "latitude": 39.7413259, "longitude": -75.54477840000001, "naics_code": "611110", "naics_desc": "ELEMENTARY AND SECONDARY SCHOOLS", "source": "https://nces.ed.gov/surveys/pss/privateschoolsearch/school_list.asp?SchoolID=A1900967", "source_date": "2024-01-31", "val_method": "IMAGERY/OTHER", "val_date": "2024-03-13", "website": "NOT AVAILABLE", "level": "1", "enrollment": "34", "st_grade": "3", "end_grade": "13", "ft_teachers": "2", "shelter_id": "NOT AVAILABLE"},{"geo_point_2d": {"lon": -75.371752, "lat": 38.669721}, "geo_shape": {"type": "Feature", "geometry": {"coordinates": [-75.371752, 38.669721], "type": "Point"}, "properties": {}}, "objectid": "9328", "ncesid": "A0700397", "name": "DELMARVA CHRISTIAN HIGH SCHOOL", "address": "21777 SUSSEX PINES RD", "city": "GEORGETOWN", "state": "DE", "zip": "19947", "zip4": "3901", "telephone": "(302) 856-4040", "type": "1", "status": "1", "population": 197, "county": "SUSSEX", "countyfips": "00510", "country": "USA", "latitude": 38.669720999999996, "longitude": -75.371752, "naics_code": "611110", "naics_desc": "ELEMENTARY AND SECONDARY SCHOOLS", "source": "https://nces.ed.gov/surveys/pss/privateschoolsearch/school_list.asp?SchoolID=A0700397", "source_date": "2024-01-31", "val_method": "IMAGERY", "val_date": "2010-05-24", "website": "NOT AVAILABLE", "level": "2", "enrollment": "184", "st_grade": "14", "end_grade": "17", "ft_teachers": "13", "shelter_id": "NOT AVAILABLE"},{"geo_point_2d": {"lon": -75.615605, "lat": 39.101823}, "geo_shape": {"type": "Feature", "geometry": {"coordinates": [-75.615605, 39.101823], "type": "Point"}, "properties": {}}, "objectid": "17551", "ncesid": "A9101652", "name": "SOUTHERN MEADOW SCHOOL", "address": "2008 SOUTHERN MEADOW SCHOOL", "city": "WYOMING", "state": "DE", "zip": "19934", "zip4": "3629", "telephone": "(302) 697-2588", "type": "1", "status": "1", "population": 30, "county": "KENT", "countyfips": "00110", "country": "USA", "latitude": 39.101822999999996, "longitude": -75.615605, "naics_code": "611110", "naics_desc": "ELEMENTARY AND SECONDARY SCHOOLS", "source": "https://nces.ed.gov/surveys/pss/privateschoolsearch/school_list.asp?SchoolID=A9101652", "source_date": "2024-01-31", "val_method": "IMAGERY/OTHER", "val_date": "2009-12-30", "website": "NOT AVAILABLE", "level": "1", "enrollment": "28", "st_grade": "6", "end_grade": "13", "ft_teachers": "2", "shelter_id": "NOT AVAILABLE"},{"geo_point_2d": {"lon": -75.5516479999999, "lat": 39.746358}, "geo_shape": {"type": "Feature", "geometry": {"coordinates": [-75.5516479999999, 39.746358], "type": "Point"}, "properties": {}}, "objectid": "10689", "ncesid": "A1100476", "name": "SERVIAM GIRLS ACADEMY", "address": "900 N WASHINGTON", "city": "WILMINGTON", "state": "DE", "zip": "19801", "zip4": "1200", "telephone": "(302) 651-9700", "type": "1", "status": "1", "population": 61, "county": "NEW CASTLE", "countyfips": "00310", "country": "USA", "latitude": 39.746358, "longitude": -75.551648, "naics_code": "611110", "naics_desc": "ELEMENTARY AND SECONDARY SCHOOLS", "source": "https://nces.ed.gov/surveys/pss/privateschoolsearch/school_list.asp?SchoolID=A1100476", "source_date": "2024-01-31", "val_method": "IMAGERY/OTHER", "val_date": "2014-11-16", "website": "NOT AVAILABLE", "level": "1", "enrollment": "57", "st_grade": "10", "end_grade": "13", "ft_teachers": "4", "shelter_id": "NOT AVAILABLE"},{"geo_point_2d": {"lon": -75.719891, "lat": 39.7693600000001}, "geo_shape": {"type": "Feature", "geometry": {"coordinates": [-75.719891, 39.7693600000001], "type": "Point"}, "properties": {}}, "objectid": "21740", "ncesid": "K9301171", "name": "CACC MONTESSORI SCHOOL", "address": "1313 LITTLE BALTIMORE RD", "city": "HOCKESSIN", "state": "DE", "zip": "19707", "zip4": "9701", "telephone": "(302) 239-2917", "type": "2", "status": "1", "population": 4, "county": "NEW CASTLE", "countyfips": "00310", "country": "USA", "latitude": 39.76936, "longitude": -75.719891, "naics_code": "611110", "naics_desc": "ELEMENTARY AND SECONDARY SCHOOLS", "source": "https://nces.ed.gov/surveys/pss/privateschoolsearch/school_list.asp?SchoolID=K9301171", "source_date": "2024-01-31", "val_method": "IMAGERY", "val_date": "2010-05-20", "website": "NOT AVAILABLE", "level": "1", "enrollment": "2", "st_grade": "2", "end_grade": "3", "ft_teachers": "2", "shelter_id": "NOT AVAILABLE"},{"geo_point_2d": {"lon": -75.5191609999999, "lat": 39.7823500000001}, "geo_shape": {"type": "Feature", "geometry": {"coordinates": [-75.5191609999999, 39.7823500000001], "type": "Point"}, "properties": {}}, "objectid": "993", "ncesid": "00249475", "name": "IMMACULATE HEART OF MARY", "address": "1000 SHIPLEY RD", "city": "WILMINGTON", "state": "DE", "zip": "19803", "zip4": "3299", "telephone": "(302) 764-0977", "type": "1", "status": "1", "population": 419, "county": "NEW CASTLE", "countyfips": "00310", "country": "USA", "latitude": 39.78235, "longitude": -75.519161, "naics_code": "611110", "naics_desc": "ELEMENTARY AND SECONDARY SCHOOLS", "source": "https://nces.ed.gov/surveys/pss/privateschoolsearch/school_list.asp?SchoolID=00249475", "source_date": "2024-01-31", "val_method": "IMAGERY/OTHER", "val_date": "2009-12-30", "website": "NOT AVAILABLE", "level": "1", "enrollment": "387", "st_grade": "2", "end_grade": "13", "ft_teachers": "32", "shelter_id": "NOT AVAILABLE"},{"geo_point_2d": {"lon": -75.543801, "lat": 39.7551800000001}, "geo_shape": {"type": "Feature", "geometry": {"coordinates": [-75.543801, 39.7551800000001], "type": "Point"}, "properties": {}}, "objectid": "6586", "ncesid": "01922294", "name": "SHARON TEMPLE ADVENTIST SCHOOL", "address": "2001 N WASHINGTON ST", "city": "WILMINGTON", "state": "DE", "zip": "19802", "zip4": "4025", "telephone": "(302) 428-0216", "type": "1", "status": "1", "population": 28, "county": "NEW CASTLE", "countyfips": "00310", "country": "USA", "latitude": 39.755179999999996, "longitude": -75.543801, "naics_code": "611110", "naics_desc": "ELEMENTARY AND SECONDARY SCHOOLS", "source": "https://nces.ed.gov/surveys/pss/privateschoolsearch/school_list.asp?SchoolID=01922294", "source_date": "2024-01-31", "val_method": "IMAGERY", "val_date": "2010-05-20", "website": "NOT AVAILABLE", "level": "1", "enrollment": "26", "st_grade": "3", "end_grade": "13", "ft_teachers": "2", "shelter_id": "NOT AVAILABLE"},{"geo_point_2d": {"lon": -75.682871, "lat": 39.6389800000001}, "geo_shape": {"type": "Feature", "geometry": {"coordinates": [-75.682871, 39.6389800000001], "type": "Point"}, "properties": {}}, "objectid": "9797", "ncesid": "A0770654", "name": "LEARNING EXPRESS ACADEMY", "address": "302 DARLING ST", "city": "NEWARK", "state": "DE", "zip": "19702", "zip4": "3775", "telephone": "(302) 737-8260", "type": "1", "status": "1", "population": 81, "county": "NEW CASTLE", "countyfips": "10003", "country": "USA", "latitude": 39.63898, "longitude": -75.682871, "naics_code": "611110", "naics_desc": "ELEMENTARY AND SECONDARY SCHOOLS", "source": "https://nces.ed.gov/surveys/pss/privateschoolsearch/school_list.asp?SchoolID=A0770654", "source_date": "2024-01-31", "val_method": "IMAGERY/OTHER", "val_date": "2024-03-14", "website": "NOT AVAILABLE", "level": "1", "enrollment": "72", "st_grade": "3", "end_grade": "13", "ft_teachers": "9", "shelter_id": "NOT AVAILABLE"},{"geo_point_2d": {"lon": -75.574651, "lat": 39.6647400000001}, "geo_shape": {"type": "Feature", "geometry": {"coordinates": [-75.574651, 39.6647400000001], "type": "Point"}, "properties": {}}, "objectid": "9993", "ncesid": "A0900712", "name": "HARVEST CHRISTAIN ACADEMY, WILMINGTON", "address": "1101 DELAWARE ST", "city": "NEW CASTLE", "state": "DE", "zip": "19720", "zip4": "3373", "telephone": "(302) 276-7581", "type": "1", "status": "1", "population": 159, "county": "NEW CASTLE", "countyfips": "00310", "country": "USA", "latitude": 39.66474, "longitude": -75.574651, "naics_code": "611110", "naics_desc": "ELEMENTARY AND SECONDARY SCHOOLS", "source": "https://nces.ed.gov/surveys/pss/privateschoolsearch/school_list.asp?SchoolID=A0900712", "source_date": "2024-01-31", "val_method": "IMAGERY/OTHER", "val_date": "2012-04-19", "website": "NOT AVAILABLE", "level": "3", "enrollment": "132", "st_grade": "2", "end_grade": "17", "ft_teachers": "27", "shelter_id": "NOT AVAILABLE"},{"geo_point_2d": {"lon": -75.6355609999999, "lat": 39.10006}, "geo_shape": {"type": "Feature", "geometry": {"coordinates": [-75.6355609999999, 39.10006], "type": "Point"}, "properties": {}}, "objectid": "17548", "ncesid": "A9101642", "name": "COOPERS CORNER SCHOOL", "address": "2183 HONEYSUCKLE RD", "city": "CAMDEN WYOMING", "state": "DE", "zip": "19934", "zip4": "3708", "telephone": "(302) 674-2374", "type": "1", "status": "1", "population": 27, "county": "KENT", "countyfips": "00110", "country": "USA", "latitude": 39.10006, "longitude": -75.635561, "naics_code": "611110", "naics_desc": "ELEMENTARY AND SECONDARY SCHOOLS", "source": "https://nces.ed.gov/surveys/pss/privateschoolsearch/school_list.asp?SchoolID=A9101642", "source_date": "2024-01-31", "val_method": "IMAGERY/OTHER", "val_date": "2009-12-30", "website": "NOT AVAILABLE", "level": "1", "enrollment": "25", "st_grade": "6", "end_grade": "13", "ft_teachers": "2", "shelter_id": "NOT AVAILABLE"},{"geo_point_2d": {"lon": -75.675691, "lat": 39.712795}, "geo_shape": {"type": "Feature", "geometry": {"coordinates": [-75.675691, 39.712795], "type": "Point"}, "properties": {}}, "objectid": "15463", "ncesid": "A1990171", "name": "DESTINY CALLING ACADEMY", "address": "5810-C KIRKWOOD HWY", "city": "WILMINGTON", "state": "DE", "zip": "19808", "zip4": "NOT AVAILABLE", "telephone": "(800) 667-7904", "type": "1", "status": "1", "population": 9, "county": "NEW CASTLE", "countyfips": "00310", "country": "USA", "latitude": 39.712795, "longitude": -75.675691, "naics_code": "611110", "naics_desc": "ELEMENTARY AND SECONDARY SCHOOLS", "source": "https://nces.ed.gov/surveys/pss/privateschoolsearch/school_list.asp?SchoolID=A1990171", "source_date": "2024-01-31", "val_method": "IMAGERY/OTHER", "val_date": "2022-06-22", "website": "NOT AVAILABLE", "level": "3", "enrollment": "4", "st_grade": "3", "end_grade": "17", "ft_teachers": "5", "shelter_id": "NOT AVAILABLE"},{"geo_point_2d": {"lon": -75.5330749999999, "lat": 39.14475}, "geo_shape": {"type": "Feature", "geometry": {"coordinates": [-75.5330749999999, 39.14475], "type": "Point"}, "properties": {}}, "objectid": "13020", "ncesid": "A1700670", "name": "DOVER FIRST CHRISTIAN SCHOOL", "address": "655 WYOMING AVE", "city": "DOVER", "state": "DE", "zip": "19904", "zip4": "4306", "telephone": "(302) 526-4998", "type": "1", "status": "1", "population": 34, "county": "KENT", "countyfips": "00110", "country": "USA", "latitude": 39.14475, "longitude": -75.533075, "naics_code": "611110", "naics_desc": "ELEMENTARY AND SECONDARY SCHOOLS", "source": "https://nces.ed.gov/surveys/pss/privateschoolsearch/school_list.asp?SchoolID=A1700670", "source_date": "2024-01-31", "val_method": "IMAGERY/OTHER", "val_date": "2022-06-22", "website": "NOT AVAILABLE", "level": "1", "enrollment": "30", "st_grade": "2", "end_grade": "11", "ft_teachers": "4", "shelter_id": "NOT AVAILABLE"},{"geo_point_2d": {"lon": -75.607391, "lat": 39.1326}, "geo_shape": {"type": "Feature", "geometry": {"coordinates": [-75.607391, 39.1326], "type": "Point"}, "properties": {}}, "objectid": "7473", "ncesid": "A0101559", "name": "APPLE GROVE SCHOOL", "address": "2391 HAZLETTVILLE RD", "city": "DOVER", "state": "DE", "zip": "19904", "zip4": "5551", "telephone": "(302) 734-8272", "type": "1", "status": "1", "population": 26, "county": "KENT", "countyfips": "00110", "country": "USA", "latitude": 39.1326, "longitude": -75.60739099999999, "naics_code": "611110", "naics_desc": "ELEMENTARY AND SECONDARY SCHOOLS", "source": "https://nces.ed.gov/surveys/pss/privateschoolsearch/school_list.asp?SchoolID=A0101559", "source_date": "2024-01-31", "val_method": "IMAGERY", "val_date": "2010-05-23", "website": "NOT AVAILABLE", "level": "1", "enrollment": "25", "st_grade": "6", "end_grade": "13", "ft_teachers": "1", "shelter_id": "NOT AVAILABLE"},{"geo_point_2d": {"lon": -75.755391, "lat": 39.67089}, "geo_shape": {"type": "Feature", "geometry": {"coordinates": [-75.755391, 39.67089], "type": "Point"}, "properties": {}}, "objectid": "1005", "ncesid": "00249781", "name": "NEWARK CENTER FOR CREATIVE LEARNING", "address": "401 PHILLIPS AVE", "city": "NEWARK", "state": "DE", "zip": "19711", "zip4": "5166", "telephone": "(302) 368-7772", "type": "3", "status": "1", "population": 87, "county": "NEW CASTLE", "countyfips": "00310", "country": "USA", "latitude": 39.67089, "longitude": -75.755391, "naics_code": "611110", "naics_desc": "ELEMENTARY AND SECONDARY SCHOOLS", "source": "https://nces.ed.gov/surveys/pss/privateschoolsearch/school_list.asp?SchoolID=00249781", "source_date": "2024-01-31", "val_method": "IMAGERY/OTHER", "val_date": "2009-12-30", "website": "NOT AVAILABLE", "level": "1", "enrollment": "77", "st_grade": "3", "end_grade": "13", "ft_teachers": "10", "shelter_id": "NOT AVAILABLE"},{"geo_point_2d": {"lon": -75.552377, "lat": 39.806456}, "geo_shape": {"type": "Feature", "geometry": {"coordinates": [-75.552377, 39.806456], "type": "Point"}, "properties": {}}, "objectid": "11245", "ncesid": "A1300551", "name": "BRANDYWINE VALLEY CHRISTIAN PRESCH", "address": "7 MOUNT LEBANON RD", "city": "WILMINGTON", "state": "DE", "zip": "19803", "zip4": "1713", "telephone": "(302) 478-4255", "type": "7", "status": "1", "population": 6, "county": "NEW CASTLE", "countyfips": "00310", "country": "USA", "latitude": 39.806456, "longitude": -75.552377, "naics_code": "611110", "naics_desc": "ELEMENTARY AND SECONDARY SCHOOLS", "source": "https://nces.ed.gov/surveys/pss/privateschoolsearch/school_list.asp?SchoolID=A1300551", "source_date": "2024-01-31", "val_method": "IMAGERY/OTHER", "val_date": "2019-10-17", "website": "NOT AVAILABLE", "level": "1", "enrollment": "4", "st_grade": "2", "end_grade": "3", "ft_teachers": "2", "shelter_id": "NOT AVAILABLE"},{"geo_point_2d": {"lon": -75.6882639999999, "lat": 39.433414}, "geo_shape": {"type": "Feature", "geometry": {"coordinates": [-75.6882639999999, 39.433414], "type": "Point"}, "properties": {}}, "objectid": "1003", "ncesid": "00249737", "name": "ST ANDREW'S SCHOOL", "address": "350 NOXONTOWN RD", "city": "MIDDLETOWN", "state": "DE", "zip": "19709", "zip4": "1605", "telephone": "(302) 378-7120", "type": "1", "status": "1", "population": 374, "county": "NEW CASTLE", "countyfips": "00310", "country": "USA", "latitude": 39.433414, "longitude": -75.68826399999999, "naics_code": "611110", "naics_desc": "ELEMENTARY AND SECONDARY SCHOOLS", "source": "https://nces.ed.gov/surveys/pss/privateschoolsearch/school_list.asp?SchoolID=00249737", "source_date": "2024-01-31", "val_method": "IMAGERY/OTHER", "val_date": "2009-12-30", "website": "NOT AVAILABLE", "level": "2", "enrollment": "316", "st_grade": "14", "end_grade": "17", "ft_teachers": "58", "shelter_id": "NOT AVAILABLE"},{"geo_point_2d": {"lon": -75.5229859999999, "lat": 39.760566}, "geo_shape": {"type": "Feature", "geometry": {"coordinates": [-75.5229859999999, 39.760566], "type": "Point"}, "properties": {}}, "objectid": "10687", "ncesid": "A1100469", "name": "MARANATHA CHRISTIAN ACADEMY", "address": "4003 N MARKET ST", "city": "WILMINGTON", "state": "DE", "zip": "19802", "zip4": "2219", "telephone": "(302) 764-7162", "type": "1", "status": "1", "population": 7, "county": "NEW CASTLE", "countyfips": "00310", "country": "USA", "latitude": 39.760566, "longitude": -75.522986, "naics_code": "611110", "naics_desc": "ELEMENTARY AND SECONDARY SCHOOLS", "source": "https://nces.ed.gov/surveys/pss/privateschoolsearch/school_list.asp?SchoolID=A1100469", "source_date": "2024-01-31", "val_method": "IMAGERY/OTHER", "val_date": "2014-11-16", "website": "NOT AVAILABLE", "level": "1", "enrollment": "5", "st_grade": "3", "end_grade": "11", "ft_teachers": "2", "shelter_id": "NOT AVAILABLE"},{"geo_point_2d": {"lon": -75.563985397, "lat": 39.762140571}, "geo_shape": {"type": "Feature", "geometry": {"coordinates": [-75.563985397, 39.762140571], "type": "Point"}, "properties": {}}, "objectid": "995", "ncesid": "00249511", "name": "ST ANN SCHOOL", "address": "2006 SHALLCROSS AVE", "city": "WILMINGTON", "state": "DE", "zip": "19806", "zip4": "2220", "telephone": "(302) 540-4276", "type": "1", "status": "1", "population": 207, "county": "NEW CASTLE", "countyfips": "10003", "country": "USA", "latitude": 39.762140599999995, "longitude": -75.5639854, "naics_code": "611110", "naics_desc": "ELEMENTARY AND SECONDARY SCHOOLS", "source": "https://nces.ed.gov/surveys/pss/privateschoolsearch/school_list.asp?SchoolID=00249511", "source_date": "2024-01-31", "val_method": "IMAGERY/OTHER", "val_date": "2024-03-18", "website": "NOT AVAILABLE", "level": "1", "enrollment": "194", "st_grade": "2", "end_grade": "13", "ft_teachers": "13", "shelter_id": "NOT AVAILABLE"},{"geo_point_2d": {"lon": -75.281029, "lat": 38.805999}, "geo_shape": {"type": "Feature", "geometry": {"coordinates": [-75.281029, 38.805999], "type": "Point"}, "properties": {}}, "objectid": "13019", "ncesid": "A1700669", "name": "DELMARVA CHRISTIAN SCHOOLS MILTON CAMPUS", "address": "26631 ZION CHURCH RD", "city": "MILTON", "state": "DE", "zip": "19968", "zip4": "NOT AVAILABLE", "telephone": "(302) 856-4040", "type": "1", "status": "1", "population": 271, "county": "SUSSEX", "countyfips": "00510", "country": "USA", "latitude": 38.805999, "longitude": -75.281029, "naics_code": "611110", "naics_desc": "ELEMENTARY AND SECONDARY SCHOOLS", "source": "https://nces.ed.gov/surveys/pss/privateschoolsearch/school_list.asp?SchoolID=A1700669", "source_date": "2024-01-31", "val_method": "IMAGERY/OTHER", "val_date": "2019-10-17", "website": "NOT AVAILABLE", "level": "1", "enrollment": "246", "st_grade": "2", "end_grade": "13", "ft_teachers": "25", "shelter_id": "NOT AVAILABLE"},{"geo_point_2d": {"lon": -75.6003709999999, "lat": 39.14099}, "geo_shape": {"type": "Feature", "geometry": {"coordinates": [-75.6003709999999, 39.14099], "type": "Point"}, "properties": {}}, "objectid": "6776", "ncesid": "02015536", "name": "ROSE VALLEY SCHOOL", "address": "361 ROSE VALLEY SCHOOL RD", "city": "DOVER", "state": "DE", "zip": "19904", "zip4": "5527", "telephone": "(302) 734-7647", "type": "1", "status": "1", "population": 32, "county": "KENT", "countyfips": "00110", "country": "USA", "latitude": 39.14099, "longitude": -75.60037100000001, "naics_code": "611110", "naics_desc": "ELEMENTARY AND SECONDARY SCHOOLS", "source": "https://nces.ed.gov/surveys/pss/privateschoolsearch/school_list.asp?SchoolID=02015536", "source_date": "2024-01-31", "val_method": "IMAGERY/OTHER", "val_date": "2009-12-30", "website": "NOT AVAILABLE", "level": "1", "enrollment": "30", "st_grade": "6", "end_grade": "13", "ft_teachers": "2", "shelter_id": "NOT AVAILABLE"},{"geo_point_2d": {"lon": -75.7137509999999, "lat": 39.7445000000001}, "geo_shape": {"type": "Feature", "geometry": {"coordinates": [-75.7137509999999, 39.7445000000001], "type": "Point"}, "properties": {}}, "objectid": "6268", "ncesid": "01612883", "name": "THE INDEPENDENCE SCHOOL", "address": "1300 PAPER MILL RD", "city": "NEWARK", "state": "DE", "zip": "19711", "zip4": "3408", "telephone": "(302) 239-0330", "type": "1", "status": "1", "population": 413, "county": "NEW CASTLE", "countyfips": "00310", "country": "USA", "latitude": 39.7445, "longitude": -75.713751, "naics_code": "611110", "naics_desc": "ELEMENTARY AND SECONDARY SCHOOLS", "source": "https://nces.ed.gov/surveys/pss/privateschoolsearch/school_list.asp?SchoolID=01612883", "source_date": "2024-01-31", "val_method": "IMAGERY/OTHER", "val_date": "2009-12-30", "website": "NOT AVAILABLE", "level": "1", "enrollment": "382", "st_grade": "2", "end_grade": "13", "ft_teachers": "31", "shelter_id": "NOT AVAILABLE"},{"geo_point_2d": {"lon": -75.554681, "lat": 39.8110500000001}, "geo_shape": {"type": "Feature", "geometry": {"coordinates": [-75.554681, 39.8110500000001], "type": "Point"}, "properties": {}}, "objectid": "1007", "ncesid": "00249817", "name": "ALBERT EINSTEIN ACADEMY", "address": "101 GARDEN OF EDEN RD 104", "city": "WILMINGTON", "state": "DE", "zip": "19803", "zip4": "1598", "telephone": "(302) 478-5026", "type": "3", "status": "1", "population": 40, "county": "NEW CASTLE", "countyfips": "00310", "country": "USA", "latitude": 39.81105, "longitude": -75.55468099999999, "naics_code": "611110", "naics_desc": "ELEMENTARY AND SECONDARY SCHOOLS", "source": "https://nces.ed.gov/surveys/pss/privateschoolsearch/school_list.asp?SchoolID=00249817", "source_date": "2024-01-31", "val_method": "IMAGERY/OTHER", "val_date": "2022-06-22", "website": "NOT AVAILABLE", "level": "1", "enrollment": "34", "st_grade": "3", "end_grade": "10", "ft_teachers": "6", "shelter_id": "NOT AVAILABLE"},{"geo_point_2d": {"lon": -75.629961, "lat": 39.1753}, "geo_shape": {"type": "Feature", "geometry": {"coordinates": [-75.629961, 39.1753], "type": "Point"}, "properties": {}}, "objectid": "1017", "ncesid": "00250174", "name": "WILEYS SCHOOL", "address": "21 SHARON HILL RD", "city": "DOVER", "state": "DE", "zip": "19904", "zip4": "4672", "telephone": "(302) 734-7647", "type": "1", "status": "1", "population": 37, "county": "KENT", "countyfips": "00110", "country": "USA", "latitude": 39.1753, "longitude": -75.62996100000001, "naics_code": "611110", "naics_desc": "ELEMENTARY AND SECONDARY SCHOOLS", "source": "https://nces.ed.gov/surveys/pss/privateschoolsearch/school_list.asp?SchoolID=00250174", "source_date": "2024-01-31", "val_method": "IMAGERY", "val_date": "2010-05-23", "website": "NOT AVAILABLE", "level": "1", "enrollment": "33", "st_grade": "6", "end_grade": "13", "ft_teachers": "4", "shelter_id": "NOT AVAILABLE"},{"geo_point_2d": {"lon": -75.71450623, "lat": 39.7140282440001}, "geo_shape": {"type": "Feature", "geometry": {"coordinates": [-75.71450623, 39.7140282440001], "type": "Point"}, "properties": {}}, "objectid": "11247", "ncesid": "A1300561", "name": "TOWLE INSTITUTE", "address": "199 POLLY DRUMMOND HILL RD", "city": "NEWARK", "state": "DE", "zip": "19711", "zip4": "0580", "telephone": "(302) 993-1408", "type": "6", "status": "1", "population": 50, "county": "NEW CASTLE", "countyfips": "10003", "country": "USA", "latitude": 39.7140282, "longitude": -75.7145062, "naics_code": "611110", "naics_desc": "ELEMENTARY AND SECONDARY SCHOOLS", "source": "https://nces.ed.gov/surveys/pss/privateschoolsearch/school_list.asp?SchoolID=A1300561", "source_date": "2024-01-31", "val_method": "IMAGERY/OTHER", "val_date": "2024-03-20", "website": "NOT AVAILABLE", "level": "3", "enrollment": "48", "st_grade": "9", "end_grade": "17", "ft_teachers": "2", "shelter_id": "NOT AVAILABLE"},{"geo_point_2d": {"lon": -75.6406679999999, "lat": 39.1477560000001}, "geo_shape": {"type": "Feature", "geometry": {"coordinates": [-75.6406679999999, 39.1477560000001], "type": "Point"}, "properties": {}}, "objectid": "1004", "ncesid": "00249748", "name": "WEST CENTER SCHOOL", "address": "1418 YODER DR", "city": "HARTLY", "state": "DE", "zip": "19953", "zip4": "2442", "telephone": "(302) 492-8863", "type": "1", "status": "1", "population": 38, "county": "KENT", "countyfips": "00110", "country": "USA", "latitude": 39.147756, "longitude": -75.640668, "naics_code": "611110", "naics_desc": "ELEMENTARY AND SECONDARY SCHOOLS", "source": "https://nces.ed.gov/surveys/pss/privateschoolsearch/school_list.asp?SchoolID=00249748", "source_date": "2024-01-31", "val_method": "IMAGERY/OTHER", "val_date": "2022-06-22", "website": "NOT AVAILABLE", "level": "1", "enrollment": "36", "st_grade": "6", "end_grade": "13", "ft_teachers": "2", "shelter_id": "NOT AVAILABLE"},{"geo_point_2d": {"lon": -75.544157, "lat": 39.7467830000001}, "geo_shape": {"type": "Feature", "geometry": {"coordinates": [-75.544157, 39.7467830000001], "type": "Point"}, "properties": {}}, "objectid": "9329", "ncesid": "A0700402", "name": "HIGH ROAD SCHOOL OF DELAWARE", "address": "1200 N FRECH ST", "city": "WILMINGTON", "state": "DE", "zip": "19801", "zip4": "NOT AVAILABLE", "telephone": "(302) 575-1266", "type": "1", "status": "1", "population": 95, "county": "NEW CASTLE", "countyfips": "00310", "country": "USA", "latitude": 39.74678299999999, "longitude": -75.544157, "naics_code": "611110", "naics_desc": "ELEMENTARY AND SECONDARY SCHOOLS", "source": "https://nces.ed.gov/surveys/pss/privateschoolsearch/school_list.asp?SchoolID=A0700402", "source_date": "2024-01-31", "val_method": "IMAGERY", "val_date": "2010-05-23", "website": "NOT AVAILABLE", "level": "3", "enrollment": "90", "st_grade": "8", "end_grade": "17", "ft_teachers": "5", "shelter_id": "NOT AVAILABLE"},{"geo_point_2d": {"lon": -75.513672, "lat": 39.119157}, "geo_shape": {"type": "Feature", "geometry": {"coordinates": [-75.513672, 39.119157], "type": "Point"}, "properties": {}}, "objectid": "17546", "ncesid": "A9101637", "name": "CALVARY CHRISTIAN ACADEMY", "address": "1143 E LEBANON RD", "city": "DOVER", "state": "DE", "zip": "19901", "zip4": "5820", "telephone": "(302) 697-7860", "type": "1", "status": "1", "population": 293, "county": "KENT", "countyfips": "00110", "country": "USA", "latitude": 39.119157, "longitude": -75.513672, "naics_code": "611110", "naics_desc": "ELEMENTARY AND SECONDARY SCHOOLS", "source": "https://nces.ed.gov/surveys/pss/privateschoolsearch/school_list.asp?SchoolID=A9101637", "source_date": "2024-01-31", "val_method": "IMAGERY/OTHER", "val_date": "2022-06-22", "website": "NOT AVAILABLE", "level": "3", "enrollment": "266", "st_grade": "2", "end_grade": "17", "ft_teachers": "27", "shelter_id": "NOT AVAILABLE"},{"geo_point_2d": {"lon": -75.658101, "lat": 39.73524}, "geo_shape": {"type": "Feature", "geometry": {"coordinates": [-75.658101, 39.73524], "type": "Point"}, "properties": {}}, "objectid": "998", "ncesid": "00249566", "name": "ST JOHN THE BELOVED SCHOOL", "address": "905 MILLTOWN RD 1", "city": "WILMINGTON", "state": "DE", "zip": "19808", "zip4": "2296", "telephone": "(302) 998-5525", "type": "1", "status": "1", "population": 455, "county": "NEW CASTLE", "countyfips": "00310", "country": "USA", "latitude": 39.73524, "longitude": -75.658101, "naics_code": "611110", "naics_desc": "ELEMENTARY AND SECONDARY SCHOOLS", "source": "https://nces.ed.gov/surveys/pss/privateschoolsearch/school_list.asp?SchoolID=00249566", "source_date": "2024-01-31", "val_method": "IMAGERY/OTHER", "val_date": "2009-12-30", "website": "NOT AVAILABLE", "level": "1", "enrollment": "427", "st_grade": "2", "end_grade": "13", "ft_teachers": "28", "shelter_id": "NOT AVAILABLE"},{"geo_point_2d": {"lon": -75.5469649999999, "lat": 39.0939680000001}, "geo_shape": {"type": "Feature", "geometry": {"coordinates": [-75.5469649999999, 39.0939680000001], "type": "Point"}, "properties": {}}, "objectid": "17547", "ncesid": "A9101639", "name": "CENTRAL DE CHRISTIAN ACADEMY", "address": "4698 S DUPONT HWY", "city": "DOVER", "state": "DE", "zip": "19901", "zip4": "6412", "telephone": "(302) 697-8407", "type": "1", "status": "1", "population": 108, "county": "KENT", "countyfips": "00110", "country": "USA", "latitude": 39.093968, "longitude": -75.546965, "naics_code": "611110", "naics_desc": "ELEMENTARY AND SECONDARY SCHOOLS", "source": "https://nces.ed.gov/surveys/pss/privateschoolsearch/school_list.asp?SchoolID=A9101639", "source_date": "2024-01-31", "val_method": "IMAGERY/OTHER", "val_date": "2009-12-30", "website": "NOT AVAILABLE", "level": "1", "enrollment": "100", "st_grade": "2", "end_grade": "13", "ft_teachers": "8", "shelter_id": "NOT AVAILABLE"},{"geo_point_2d": {"lon": -75.737023, "lat": 39.675934}, "geo_shape": {"type": "Feature", "geometry": {"coordinates": [-75.737023, 39.675934], "type": "Point"}, "properties": {}}, "objectid": "1015", "ncesid": "00250108", "name": "THE COLLEGE SCHOOL", "address": "459 WYOMING RD", "city": "NEWARK", "state": "DE", "zip": "19716", "zip4": "5901", "telephone": "(302) 831-1097", "type": "1", "status": "1", "population": 54, "county": "NEW CASTLE", "countyfips": "00310", "country": "USA", "latitude": 39.675934, "longitude": -75.737023, "naics_code": "611110", "naics_desc": "ELEMENTARY AND SECONDARY SCHOOLS", "source": "https://nces.ed.gov/surveys/pss/privateschoolsearch/school_list.asp?SchoolID=00250108", "source_date": "2024-01-31", "val_method": "IMAGERY/OTHER", "val_date": "2009-12-30", "website": "NOT AVAILABLE", "level": "1", "enrollment": "47", "st_grade": "7", "end_grade": "13", "ft_teachers": "7", "shelter_id": "NOT AVAILABLE"},{"geo_point_2d": {"lon": -75.567194, "lat": 39.7529930000001}, "geo_shape": {"type": "Feature", "geometry": {"coordinates": [-75.567194, 39.7529930000001], "type": "Point"}, "properties": {}}, "objectid": "996", "ncesid": "00249522", "name": "ST ANTHONY OF PADUA GRADE SCHOOL", "address": "1715 W 9TH ST", "city": "WILMINGTON", "state": "DE", "zip": "19805", "zip4": "5303", "telephone": "(302) 421-3743", "type": "1", "status": "1", "population": 195, "county": "NEW CASTLE", "countyfips": "00310", "country": "USA", "latitude": 39.752993, "longitude": -75.567194, "naics_code": "611110", "naics_desc": "ELEMENTARY AND SECONDARY SCHOOLS", "source": "https://nces.ed.gov/surveys/pss/privateschoolsearch/school_list.asp?SchoolID=00249522", "source_date": "2024-01-31", "val_method": "IMAGERY/OTHER", "val_date": "2022-06-22", "website": "NOT AVAILABLE", "level": "1", "enrollment": "181", "st_grade": "2", "end_grade": "13", "ft_teachers": "14", "shelter_id": "NOT AVAILABLE"},{"geo_point_2d": {"lon": -75.634151, "lat": 39.2096300000001}, "geo_shape": {"type": "Feature", "geometry": {"coordinates": [-75.634151, 39.2096300000001], "type": "Point"}, "properties": {}}, "objectid": "1016", "ncesid": "00250152", "name": "GREEN HILL", "address": "1936 SEENEYTOWN RD", "city": "DOVER", "state": "DE", "zip": "19904", "zip4": "1655", "telephone": "(302) 653-4602", "type": "1", "status": "1", "population": 44, "county": "KENT", "countyfips": "00110", "country": "USA", "latitude": 39.209630000000004, "longitude": -75.634151, "naics_code": "611110", "naics_desc": "ELEMENTARY AND SECONDARY SCHOOLS", "source": "https://nces.ed.gov/surveys/pss/privateschoolsearch/school_list.asp?SchoolID=00250152", "source_date": "2024-01-31", "val_method": "IMAGERY/OTHER", "val_date": "2009-12-30", "website": "NOT AVAILABLE", "level": "1", "enrollment": "42", "st_grade": "6", "end_grade": "13", "ft_teachers": "2", "shelter_id": "NOT AVAILABLE"},{"geo_point_2d": {"lon": -75.680551, "lat": 39.7776700000001}, "geo_shape": {"type": "Feature", "geometry": {"coordinates": [-75.680551, 39.7776700000001], "type": "Point"}, "properties": {}}, "objectid": "17549", "ncesid": "A9101644", "name": "THE HOCKESSIN MONTESSORI SCHOOL", "address": "1000 OLD LANCASTER PIKE", "city": "HOCKESSIN", "state": "DE", "zip": "19707", "zip4": "9522", "telephone": "(302) 234-1240", "type": "2", "status": "1", "population": 63, "county": "NEW CASTLE", "countyfips": "00310", "country": "USA", "latitude": 39.77767, "longitude": -75.680551, "naics_code": "611110", "naics_desc": "ELEMENTARY AND SECONDARY SCHOOLS", "source": "https://nces.ed.gov/surveys/pss/privateschoolsearch/school_list.asp?SchoolID=A9101644", "source_date": "2024-01-31", "val_method": "IMAGERY/OTHER", "val_date": "2009-12-30", "website": "NOT AVAILABLE", "level": "1", "enrollment": "42", "st_grade": "2", "end_grade": "13", "ft_teachers": "21", "shelter_id": "NOT AVAILABLE"},{"geo_point_2d": {"lon": -75.530451, "lat": 39.7495200000001}, "geo_shape": {"type": "Feature", "geometry": {"coordinates": [-75.530451, 39.7495200000001], "type": "Point"}, "properties": {}}, "objectid": "9995", "ncesid": "A0900734", "name": "URBAN PROMISE SCHOOL", "address": "2401 THATCHER ST", "city": "WILMINGTON", "state": "DE", "zip": "19802", "zip4": "4539", "telephone": "(302) 425-5502", "type": "1", "status": "1", "population": 58, "county": "NEW CASTLE", "countyfips": "00310", "country": "USA", "latitude": 39.74952, "longitude": -75.530451, "naics_code": "611110", "naics_desc": "ELEMENTARY AND SECONDARY SCHOOLS", "source": "https://nces.ed.gov/surveys/pss/privateschoolsearch/school_list.asp?SchoolID=A0900734", "source_date": "2024-01-31", "val_method": "IMAGERY", "val_date": "2012-04-19", "website": "NOT AVAILABLE", "level": "1", "enrollment": "50", "st_grade": "2", "end_grade": "11", "ft_teachers": "8", "shelter_id": "NOT AVAILABLE"},{"geo_point_2d": {"lon": -75.7856209999999, "lat": 39.63347}, "geo_shape": {"type": "Feature", "geometry": {"coordinates": [-75.7856209999999, 39.63347], "type": "Point"}, "properties": {}}, "objectid": "19291", "ncesid": "A9700889", "name": "THE NEW SCHOOL", "address": "1752 DIXIE LINE RD", "city": "NEWARK", "state": "DE", "zip": "19702", "zip4": "NOT AVAILABLE", "telephone": "(302) 456-9838", "type": "3", "status": "1", "population": 35, "county": "NEW CASTLE", "countyfips": "00310", "country": "USA", "latitude": 39.63347, "longitude": -75.785621, "naics_code": "611110", "naics_desc": "ELEMENTARY AND SECONDARY SCHOOLS", "source": "https://nces.ed.gov/surveys/pss/privateschoolsearch/school_list.asp?SchoolID=A9700889", "source_date": "2024-01-31", "val_method": "IMAGERY/OTHER", "val_date": "2009-12-30", "website": "NOT AVAILABLE", "level": "3", "enrollment": "31", "st_grade": "1", "end_grade": "1", "ft_teachers": "4", "shelter_id": "NOT AVAILABLE"},{"geo_point_2d": {"lon": -75.658153, "lat": 39.1387320000001}, "geo_shape": {"type": "Feature", "geometry": {"coordinates": [-75.658153, 39.1387320000001], "type": "Point"}, "properties": {}}, "objectid": "21089", "ncesid": "BB180434", "name": "SHADY LANE SCHOOL", "address": "420 BRITTNEY LN", "city": "HARTLY", "state": "DE", "zip": "19953", "zip4": "2262", "telephone": "(302) 492-8385", "type": "1", "status": "1", "population": 35, "county": "KENT", "countyfips": "00110", "country": "USA", "latitude": 39.138732, "longitude": -75.658153, "naics_code": "611110", "naics_desc": "ELEMENTARY AND SECONDARY SCHOOLS", "source": "https://nces.ed.gov/surveys/pss/privateschoolsearch/school_list.asp?SchoolID=BB180434", "source_date": "2024-01-31", "val_method": "IMAGERY/OTHER", "val_date": "2022-06-22", "website": "NOT AVAILABLE", "level": "1", "enrollment": "34", "st_grade": "6", "end_grade": "13", "ft_teachers": "1", "shelter_id": "NOT AVAILABLE"},{"geo_point_2d": {"lon": -75.564221, "lat": 39.6633}, "geo_shape": {"type": "Feature", "geometry": {"coordinates": [-75.564221, 39.6633], "type": "Point"}, "properties": {}}, "objectid": "992", "ncesid": "00249431", "name": "ST PETER CATHOLIC SCHOOL", "address": "515 HARMONY ST", "city": "NEW CASTLE", "state": "DE", "zip": "19720", "zip4": "4557", "telephone": "(302) 328-1191", "type": "1", "status": "1", "population": 145, "county": "NEW CASTLE", "countyfips": "00310", "country": "USA", "latitude": 39.6633, "longitude": -75.564221, "naics_code": "611110", "naics_desc": "ELEMENTARY AND SECONDARY SCHOOLS", "source": "https://nces.ed.gov/surveys/pss/privateschoolsearch/school_list.asp?SchoolID=00249431", "source_date": "2024-01-31", "val_method": "IMAGERY/OTHER", "val_date": "2009-12-30", "website": "NOT AVAILABLE", "level": "1", "enrollment": "132", "st_grade": "2", "end_grade": "13", "ft_teachers": "13", "shelter_id": "NOT AVAILABLE"},{"geo_point_2d": {"lon": -75.5584689999999, "lat": 39.752348}, "geo_shape": {"type": "Feature", "geometry": {"coordinates": [-75.5584689999999, 39.752348], "type": "Point"}, "properties": {}}, "objectid": "1002", "ncesid": "00249646", "name": "URSULINE ACADEMY, LOWER", "address": "1106 PENNSYLVANIA AVE", "city": "WILMINGTON", "state": "DE", "zip": "19806", "zip4": "4398", "telephone": "(302) 658-7158", "type": "1", "status": "1", "population": 168, "county": "NEW CASTLE", "countyfips": "00310", "country": "USA", "latitude": 39.752348, "longitude": -75.558469, "naics_code": "611110", "naics_desc": "ELEMENTARY AND SECONDARY SCHOOLS", "source": "https://nces.ed.gov/surveys/pss/privateschoolsearch/school_list.asp?SchoolID=00249646", "source_date": "2024-01-31", "val_method": "IMAGERY/OTHER", "val_date": "2012-04-19", "website": "NOT AVAILABLE", "level": "1", "enrollment": "144", "st_grade": "3", "end_grade": "10", "ft_teachers": "24", "shelter_id": "NOT AVAILABLE"},{"geo_point_2d": {"lon": -75.533711, "lat": 39.7895600000001}, "geo_shape": {"type": "Feature", "geometry": {"coordinates": [-75.533711, 39.7895600000001], "type": "Point"}, "properties": {}}, "objectid": "21741", "ncesid": "K9301185", "name": "CONCORD PRESCHOOL AND CHILDCARE", "address": "1800 FAIRFAX BLVD", "city": "WILMINGTON", "state": "DE", "zip": "19803", "zip4": "3199", "telephone": "(302) 654-9629", "type": "7", "status": "1", "population": 11, "county": "NEW CASTLE", "countyfips": "00310", "country": "USA", "latitude": 39.789559999999994, "longitude": -75.533711, "naics_code": "611110", "naics_desc": "ELEMENTARY AND SECONDARY SCHOOLS", "source": "https://nces.ed.gov/surveys/pss/privateschoolsearch/school_list.asp?SchoolID=K9301185", "source_date": "2024-01-31", "val_method": "IMAGERY/OTHER", "val_date": "2009-12-30", "website": "NOT AVAILABLE", "level": "1", "enrollment": "8", "st_grade": "2", "end_grade": "3", "ft_teachers": "3", "shelter_id": "NOT AVAILABLE"},{"geo_point_2d": {"lon": -75.681001, "lat": 39.23256}, "geo_shape": {"type": "Feature", "geometry": {"coordinates": [-75.681001, 39.23256], "type": "Point"}, "properties": {}}, "objectid": "9330", "ncesid": "A0700405", "name": "KENTON MENNONITE SCHOOL", "address": "2422 CHANCE RD", "city": "CLAYTON", "state": "DE", "zip": "19938", "zip4": "3012", "telephone": "(302) 653-4185", "type": "1", "status": "1", "population": 36, "county": "KENT", "countyfips": "00110", "country": "USA", "latitude": 39.23256, "longitude": -75.681001, "naics_code": "611110", "naics_desc": "ELEMENTARY AND SECONDARY SCHOOLS", "source": "https://nces.ed.gov/surveys/pss/privateschoolsearch/school_list.asp?SchoolID=A0700405", "source_date": "2024-01-31", "val_method": "IMAGERY", "val_date": "2010-05-23", "website": "NOT AVAILABLE", "level": "3", "enrollment": "33", "st_grade": "6", "end_grade": "15", "ft_teachers": "3", "shelter_id": "NOT AVAILABLE"},{"geo_point_2d": {"lon": -75.646371, "lat": 39.6444700000001}, "geo_shape": {"type": "Feature", "geometry": {"coordinates": [-75.646371, 39.6444700000001], "type": "Point"}, "properties": {}}, "objectid": "1011", "ncesid": "00249919", "name": "FAIRWINDS CHRISTIAN SCHOOL", "address": "801 SEYMOUR RD", "city": "BEAR", "state": "DE", "zip": "19701", "zip4": "1121", "telephone": "(302) 328-7404", "type": "1", "status": "1", "population": 159, "county": "NEW CASTLE", "countyfips": "00310", "country": "USA", "latitude": 39.64447, "longitude": -75.646371, "naics_code": "611110", "naics_desc": "ELEMENTARY AND SECONDARY SCHOOLS", "source": "https://nces.ed.gov/surveys/pss/privateschoolsearch/school_list.asp?SchoolID=00249919", "source_date": "2024-01-31", "val_method": "IMAGERY/OTHER", "val_date": "2009-12-30", "website": "NOT AVAILABLE", "level": "3", "enrollment": "147", "st_grade": "2", "end_grade": "17", "ft_teachers": "12", "shelter_id": "NOT AVAILABLE"},{"geo_point_2d": {"lon": -75.716098, "lat": 39.6451220000001}, "geo_shape": {"type": "Feature", "geometry": {"coordinates": [-75.716098, 39.6451220000001], "type": "Point"}, "properties": {}}, "objectid": "11246", "ncesid": "A1300552", "name": "TARBIYAH SCHOOL", "address": "698 OLD BALTIMORE PIKE", "city": "NEWARK", "state": "DE", "zip": "19702", "zip4": "1312", "telephone": "(302) 533-8114", "type": "1", "status": "1", "population": 207, "county": "NEW CASTLE", "countyfips": "10003", "country": "USA", "latitude": 39.645122, "longitude": -75.71609799999999, "naics_code": "611110", "naics_desc": "ELEMENTARY AND SECONDARY SCHOOLS", "source": "https://nces.ed.gov/surveys/pss/privateschoolsearch/school_list.asp?SchoolID=A1300552", "source_date": "2024-01-31", "val_method": "IMAGERY/OTHER", "val_date": "2024-03-20", "website": "NOT AVAILABLE", "level": "3", "enrollment": "171", "st_grade": "2", "end_grade": "14", "ft_teachers": "36", "shelter_id": "NOT AVAILABLE"},{"geo_point_2d": {"lon": -75.493751, "lat": 38.5969400000001}, "geo_shape": {"type": "Feature", "geometry": {"coordinates": [-75.493751, 38.5969400000001], "type": "Point"}, "properties": {}}, "objectid": "6239", "ncesid": "01609906", "name": "EPWORTH CHRISTIAN SCHOOL", "address": "14511 SYCAMORE RD", "city": "LAUREL", "state": "DE", "zip": "19956", "zip4": "2740", "telephone": "(302) 875-4488", "type": "1", "status": "1", "population": 169, "county": "SUSSEX", "countyfips": "00510", "country": "USA", "latitude": 38.59694, "longitude": -75.493751, "naics_code": "611110", "naics_desc": "ELEMENTARY AND SECONDARY SCHOOLS", "source": "https://nces.ed.gov/surveys/pss/privateschoolsearch/school_list.asp?SchoolID=01609906", "source_date": "2024-01-31", "val_method": "IMAGERY", "val_date": "2010-05-24", "website": "NOT AVAILABLE", "level": "1", "enrollment": "159", "st_grade": "2", "end_grade": "13", "ft_teachers": "10", "shelter_id": "NOT AVAILABLE"},{"geo_point_2d": {"lon": -75.624291, "lat": 39.83036}, "geo_shape": {"type": "Feature", "geometry": {"coordinates": [-75.624291, 39.83036], "type": "Point"}, "properties": {}}, "objectid": "1009", "ncesid": "00249883", "name": "CENTERVILLE LAYTON SCHOOL", "address": "6201 KENNETT PIKE", "city": "WILMINGTON", "state": "DE", "zip": "19807", "zip4": "1017", "telephone": "(302) 571-0230", "type": "6", "status": "1", "population": 114, "county": "NEW CASTLE", "countyfips": "00310", "country": "USA", "latitude": 39.83036, "longitude": -75.624291, "naics_code": "611110", "naics_desc": "ELEMENTARY AND SECONDARY SCHOOLS", "source": "https://nces.ed.gov/surveys/pss/privateschoolsearch/school_list.asp?SchoolID=00249883", "source_date": "2024-01-31", "val_method": "IMAGERY/OTHER", "val_date": "2009-12-30", "website": "NOT AVAILABLE", "level": "3", "enrollment": "92", "st_grade": "3", "end_grade": "17", "ft_teachers": "22", "shelter_id": "NOT AVAILABLE"},{"geo_point_2d": {"lon": -75.622381, "lat": 39.1811000000001}, "geo_shape": {"type": "Feature", "geometry": {"coordinates": [-75.622381, 39.1811000000001], "type": "Point"}, "properties": {}}, "objectid": "17550", "ncesid": "A9101645", "name": "HONEYSUCKLE KNOLL SCHOOL", "address": "281 BLUE HERON RD", "city": "DOVER", "state": "DE", "zip": "19904", "zip4": "4732", "telephone": "(302) 538-1621", "type": "1", "status": "1", "population": 35, "county": "KENT", "countyfips": "00110", "country": "USA", "latitude": 39.1811, "longitude": -75.62238099999999, "naics_code": "611110", "naics_desc": "ELEMENTARY AND SECONDARY SCHOOLS", "source": "https://nces.ed.gov/surveys/pss/privateschoolsearch/school_list.asp?SchoolID=A9101645", "source_date": "2024-01-31", "val_method": "IMAGERY", "val_date": "2010-05-23", "website": "NOT AVAILABLE", "level": "1", "enrollment": "33", "st_grade": "6", "end_grade": "13", "ft_teachers": "2", "shelter_id": "NOT AVAILABLE"},{"geo_point_2d": {"lon": -75.660851, "lat": 39.7188100000001}, "geo_shape": {"type": "Feature", "geometry": {"coordinates": [-75.660851, 39.7188100000001], "type": "Point"}, "properties": {}}, "objectid": "8734", "ncesid": "A0500893", "name": "DEVELOPING MINDS PRESCHOOL AND LEARNING  CENTER", "address": "2106 SAINT JAMES CHURCH RD", "city": "WILMINGTON", "state": "DE", "zip": "19808", "zip4": "5225", "telephone": "(302) 593-1503", "type": "7", "status": "1", "population": 10, "county": "NEW CASTLE", "countyfips": "00310", "country": "USA", "latitude": 39.718810000000005, "longitude": -75.660851, "naics_code": "611110", "naics_desc": "ELEMENTARY AND SECONDARY SCHOOLS", "source": "https://nces.ed.gov/surveys/pss/privateschoolsearch/school_list.asp?SchoolID=A0500893", "source_date": "2024-01-31", "val_method": "IMAGERY/OTHER", "val_date": "2014-11-16", "website": "NOT AVAILABLE", "level": "1", "enrollment": "9", "st_grade": "2", "end_grade": "3", "ft_teachers": "1", "shelter_id": "NOT AVAILABLE"},{"geo_point_2d": {"lon": -75.555311, "lat": 39.8189400000001}, "geo_shape": {"type": "Feature", "geometry": {"coordinates": [-75.555311, 39.8189400000001], "type": "Point"}, "properties": {}}, "objectid": "1006", "ncesid": "00249792", "name": "THE PILOT SCHOOL", "address": "208 WOODLAWN RD", "city": "WILMINGTON", "state": "DE", "zip": "19803", "zip4": "1301", "telephone": "(302) 478-1740", "type": "4", "status": "1", "population": 134, "county": "NEW CASTLE", "countyfips": "00310", "country": "USA", "latitude": 39.81894, "longitude": -75.555311, "naics_code": "611110", "naics_desc": "ELEMENTARY AND SECONDARY SCHOOLS", "source": "https://nces.ed.gov/surveys/pss/privateschoolsearch/school_list.asp?SchoolID=00249792", "source_date": "2024-01-31", "val_method": "IMAGERY/OTHER", "val_date": "2009-12-30", "website": "NOT AVAILABLE", "level": "3", "enrollment": "112", "st_grade": "1", "end_grade": "1", "ft_teachers": "22", "shelter_id": "NOT AVAILABLE"},{"geo_point_2d": {"lon": -75.447501, "lat": 38.9048300000001}, "geo_shape": {"type": "Feature", "geometry": {"coordinates": [-75.447501, 38.9048300000001], "type": "Point"}, "properties": {}}, "objectid": "1013", "ncesid": "00249996", "name": "MILFORD CHRISTIAN SCHOOL", "address": "6062 OLD SHAWNEE RD", "city": "MILFORD", "state": "DE", "zip": "19963", "zip4": "3355", "telephone": "(302) 422-4263", "type": "1", "status": "1", "population": 119, "county": "SUSSEX", "countyfips": "00510", "country": "USA", "latitude": 38.904830000000004, "longitude": -75.447501, "naics_code": "611110", "naics_desc": "ELEMENTARY AND SECONDARY SCHOOLS", "source": "https://nces.ed.gov/surveys/pss/privateschoolsearch/school_list.asp?SchoolID=00249996", "source_date": "2024-01-31", "val_method": "IMAGERY/OTHER", "val_date": "2009-12-30", "website": "NOT AVAILABLE", "level": "3", "enrollment": "108", "st_grade": "3", "end_grade": "17", "ft_teachers": "11", "shelter_id": "NOT AVAILABLE"},{"geo_point_2d": {"lon": -75.6954709999999, "lat": 39.5721500000001}, "geo_shape": {"type": "Feature", "geometry": {"coordinates": [-75.6954709999999, 39.5721500000001], "type": "Point"}, "properties": {}}, "objectid": "19290", "ncesid": "A9700826", "name": "AQUINAS ACADEMY", "address": "2370 RED LION RD", "city": "BEAR", "state": "DE", "zip": "19701", "zip4": "1848", "telephone": "(302) 838-9601", "type": "1", "status": "1", "population": 92, "county": "NEW CASTLE", "countyfips": "00310", "country": "USA", "latitude": 39.57215, "longitude": -75.69547100000001, "naics_code": "611110", "naics_desc": "ELEMENTARY AND SECONDARY SCHOOLS", "source": "https://nces.ed.gov/surveys/pss/privateschoolsearch/school_list.asp?SchoolID=A9700826", "source_date": "2024-01-31", "val_method": "IMAGERY", "val_date": "2010-05-23", "website": "NOT AVAILABLE", "level": "3", "enrollment": "81", "st_grade": "2", "end_grade": "17", "ft_teachers": "11", "shelter_id": "NOT AVAILABLE"},{"geo_point_2d": {"lon": -75.5489709999999, "lat": 39.79445}, "geo_shape": {"type": "Feature", "geometry": {"coordinates": [-75.5489709999999, 39.79445], "type": "Point"}, "properties": {}}, "objectid": "1000", "ncesid": "00249588", "name": "ST MARY MAGDALEN SCHOOL", "address": "9 SHARPLEY RD", "city": "WILMINGTON", "state": "DE", "zip": "19803", "zip4": "2992", "telephone": "(302) 656-2745", "type": "1", "status": "1", "population": 522, "county": "NEW CASTLE", "countyfips": "00310", "country": "USA", "latitude": 39.794450000000005, "longitude": -75.54897100000001, "naics_code": "611110", "naics_desc": "ELEMENTARY AND SECONDARY SCHOOLS", "source": "https://nces.ed.gov/surveys/pss/privateschoolsearch/school_list.asp?SchoolID=00249588", "source_date": "2024-01-31", "val_method": "IMAGERY", "val_date": "2012-04-19", "website": "NOT AVAILABLE", "level": "1", "enrollment": "488", "st_grade": "2", "end_grade": "13", "ft_teachers": "34", "shelter_id": "NOT AVAILABLE"},{"geo_point_2d": {"lon": -75.737023, "lat": 39.675934}, "geo_shape": {"type": "Feature", "geometry": {"coordinates": [-75.737023, 39.675934], "type": "Point"}, "properties": {}}, "objectid": "21254", "ncesid": "BB200314", "name": "UNIVERSITY OF DELAWARE LAB PRESCHOOL", "address": "459 WYOMING RD", "city": "NEWARK", "state": "DE", "zip": "19716", "zip4": "NOT AVAILABLE", "telephone": "(302) 831-2304", "type": "7", "status": "1", "population": 12, "county": "NEW CASTLE", "countyfips": "10003", "country": "USA", "latitude": 39.675934, "longitude": -75.737023, "naics_code": "611110", "naics_desc": "ELEMENTARY AND SECONDARY SCHOOLS", "source": "https://nces.ed.gov/surveys/pss/privateschoolsearch/school_list.asp?SchoolID=BB200314", "source_date": "2024-01-31", "val_method": "IMAGERY/OTHER", "val_date": "2024-03-19", "website": "NOT AVAILABLE", "level": "1", "enrollment": "7", "st_grade": "2", "end_grade": "3", "ft_teachers": "5", "shelter_id": "NOT AVAILABLE"},{"geo_point_2d": {"lon": -75.5630609999999, "lat": 39.7513000000001}, "geo_shape": {"type": "Feature", "geometry": {"coordinates": [-75.5630609999999, 39.7513000000001], "type": "Point"}, "properties": {}}, "objectid": "994", "ncesid": "00249486", "name": "PADUA ACADEMY", "address": "905 N BROOM ST", "city": "WILMINGTON", "state": "DE", "zip": "19806", "zip4": "4544", "telephone": "(302) 421-3739", "type": "1", "status": "1", "population": 521, "county": "NEW CASTLE", "countyfips": "00310", "country": "USA", "latitude": 39.7513, "longitude": -75.563061, "naics_code": "611110", "naics_desc": "ELEMENTARY AND SECONDARY SCHOOLS", "source": "https://nces.ed.gov/surveys/pss/privateschoolsearch/school_list.asp?SchoolID=00249486", "source_date": "2024-01-31", "val_method": "IMAGERY/OTHER", "val_date": "2011-01-04", "website": "NOT AVAILABLE", "level": "2", "enrollment": "480", "st_grade": "14", "end_grade": "17", "ft_teachers": "41", "shelter_id": "10811969"},{"geo_point_2d": {"lon": -75.648231, "lat": 39.1593}, "geo_shape": {"type": "Feature", "geometry": {"coordinates": [-75.648231, 39.1593], "type": "Point"}, "properties": {}}, "objectid": "18567", "ncesid": "A9302660", "name": "CEDAR GROVE AMISH SCHOOL", "address": "2636 PEARSONS CORNER RD", "city": "DOVER", "state": "DE", "zip": "19904", "zip4": "5103", "telephone": "(302) 698-7630", "type": "1", "status": "1", "population": 37, "county": "KENT", "countyfips": "00110", "country": "USA", "latitude": 39.1593, "longitude": -75.64823100000001, "naics_code": "611110", "naics_desc": "ELEMENTARY AND SECONDARY SCHOOLS", "source": "https://nces.ed.gov/surveys/pss/privateschoolsearch/school_list.asp?SchoolID=A9302660", "source_date": "2024-01-31", "val_method": "IMAGERY", "val_date": "2010-05-23", "website": "NOT AVAILABLE", "level": "1", "enrollment": "35", "st_grade": "6", "end_grade": "13", "ft_teachers": "2", "shelter_id": "NOT AVAILABLE"},{"geo_point_2d": {"lon": -75.570261, "lat": 39.7430900000001}, "geo_shape": {"type": "Feature", "geometry": {"coordinates": [-75.570261, 39.7430900000001], "type": "Point"}, "properties": {}}, "objectid": "8735", "ncesid": "A0500905", "name": "NATIVITY PREPARATORY SCHOOL OF WILMINGTON", "address": "1515 LINDEN ST", "city": "WILMINGTON", "state": "DE", "zip": "19805", "zip4": "3923", "telephone": "(302) 777-1015", "type": "1", "status": "1", "population": 41, "county": "NEW CASTLE", "countyfips": "00310", "country": "USA", "latitude": 39.74309, "longitude": -75.570261, "naics_code": "611110", "naics_desc": "ELEMENTARY AND SECONDARY SCHOOLS", "source": "https://nces.ed.gov/surveys/pss/privateschoolsearch/school_list.asp?SchoolID=A0500905", "source_date": "2024-01-31", "val_method": "IMAGERY", "val_date": "2010-05-20", "website": "NOT AVAILABLE", "level": "1", "enrollment": "34", "st_grade": "10", "end_grade": "13", "ft_teachers": "7", "shelter_id": "NOT AVAILABLE"},{"geo_point_2d": {"lon": -75.6701409999999, "lat": 39.59704}, "geo_shape": {"type": "Feature", "geometry": {"coordinates": [-75.6701409999999, 39.59704], "type": "Point"}, "properties": {}}, "objectid": "6585", "ncesid": "01922283", "name": "RED LION CHRISTIAN ACADEMY", "address": "1390 RED LION RD", "city": "BEAR", "state": "DE", "zip": "19701", "zip4": "1819", "telephone": "(302) 834-5020", "type": "1", "status": "1", "population": 577, "county": "NEW CASTLE", "countyfips": "00310", "country": "USA", "latitude": 39.59704, "longitude": -75.670141, "naics_code": "611110", "naics_desc": "ELEMENTARY AND SECONDARY SCHOOLS", "source": "https://nces.ed.gov/surveys/pss/privateschoolsearch/school_list.asp?SchoolID=01922283", "source_date": "2024-01-31", "val_method": "IMAGERY/OTHER", "val_date": "2009-12-30", "website": "NOT AVAILABLE", "level": "3", "enrollment": "516", "st_grade": "3", "end_grade": "17", "ft_teachers": "61", "shelter_id": "NOT AVAILABLE"},{"geo_point_2d": {"lon": -75.564711, "lat": 38.81066}, "geo_shape": {"type": "Feature", "geometry": {"coordinates": [-75.564711, 38.81066], "type": "Point"}, "properties": {}}, "objectid": "1012", "ncesid": "00249963", "name": "GREENWOOD MENNONITE SCHOOL", "address": "12802 MENNONITE SCHOOL RD", "city": "GREENWOOD", "state": "DE", "zip": "19950", "zip4": "5309", "telephone": "(302) 349-4131", "type": "1", "status": "1", "population": 274, "county": "SUSSEX", "countyfips": "00510", "country": "USA", "latitude": 38.81066, "longitude": -75.564711, "naics_code": "611110", "naics_desc": "ELEMENTARY AND SECONDARY SCHOOLS", "source": "https://nces.ed.gov/surveys/pss/privateschoolsearch/school_list.asp?SchoolID=00249963", "source_date": "2024-01-31", "val_method": "IMAGERY/OTHER", "val_date": "2009-12-30", "website": "NOT AVAILABLE", "level": "3", "enrollment": "252", "st_grade": "2", "end_grade": "17", "ft_teachers": "22", "shelter_id": "NOT AVAILABLE"},{"geo_point_2d": {"lon": -75.717521, "lat": 39.1006400000001}, "geo_shape": {"type": "Feature", "geometry": {"coordinates": [-75.717521, 39.1006400000001], "type": "Point"}, "properties": {}}, "objectid": "14183", "ncesid": "A1900972", "name": "PARKERS CHAPEL AMISH SCHOOL", "address": "1326 PARKERS CHAPEL RD", "city": "MARYDEL", "state": "DE", "zip": "19964", "zip4": "2059", "telephone": "(302) 359-1319", "type": "1", "status": "1", "population": 26, "county": "KENT", "countyfips": "00110", "country": "USA", "latitude": 39.10064, "longitude": -75.717521, "naics_code": "611110", "naics_desc": "ELEMENTARY AND SECONDARY SCHOOLS", "source": "https://nces.ed.gov/surveys/pss/privateschoolsearch/school_list.asp?SchoolID=A1900972", "source_date": "2024-01-31", "val_method": "IMAGERY/OTHER", "val_date": "2022-06-22", "website": "NOT AVAILABLE", "level": "1", "enrollment": "25", "st_grade": "6", "end_grade": "13", "ft_teachers": "1", "shelter_id": "NOT AVAILABLE"},{"geo_point_2d": {"lon": -75.696343, "lat": 39.675957}, "geo_shape": {"type": "Feature", "geometry": {"coordinates": [-75.696343, 39.675957], "type": "Point"}, "properties": {}}, "objectid": "10688", "ncesid": "A1100473", "name": "ISLAMIC ACADEMY OF DELAWARE", "address": "28 SALEM CHURCH RD", "city": "NEWARK", "state": "DE", "zip": "19713", "zip4": "2934", "telephone": "(302) 455-9988", "type": "1", "status": "1", "population": 133, "county": "NEW CASTLE", "countyfips": "10003", "country": "USA", "latitude": 39.675957, "longitude": -75.696343, "naics_code": "611110", "naics_desc": "ELEMENTARY AND SECONDARY SCHOOLS", "source": "https://nces.ed.gov/surveys/pss/privateschoolsearch/school_list.asp?SchoolID=A1100473", "source_date": "2024-01-31", "val_method": "IMAGERY/OTHER", "val_date": "2024-03-14", "website": "NOT AVAILABLE", "level": "1", "enrollment": "106", "st_grade": "2", "end_grade": "13", "ft_teachers": "27", "shelter_id": "NOT AVAILABLE"},{"geo_point_2d": {"lon": -75.699740592, "lat": 39.4391490880001}, "geo_shape": {"type": "Feature", "geometry": {"coordinates": [-75.699740592, 39.4391490880001], "type": "Point"}, "properties": {}}, "objectid": "8131", "ncesid": "A0300731", "name": "ST ANNES EPISCOPAL SCHOOL", "address": "211 SILVER LAKE RD", "city": "MIDDLETOWN", "state": "DE", "zip": "19709", "zip4": "1601", "telephone": "(302) 378-3179", "type": "1", "status": "1", "population": 257, "county": "NEW CASTLE", "countyfips": "10003", "country": "USA", "latitude": 39.4391491, "longitude": -75.69974060000001, "naics_code": "611110", "naics_desc": "ELEMENTARY AND SECONDARY SCHOOLS", "source": "https://nces.ed.gov/surveys/pss/privateschoolsearch/school_list.asp?SchoolID=A0300731", "source_date": "2024-01-31", "val_method": "IMAGERY/OTHER", "val_date": "2024-03-18", "website": "NOT AVAILABLE", "level": "1", "enrollment": "215", "st_grade": "2", "end_grade": "13", "ft_teachers": "42", "shelter_id": "NOT AVAILABLE"},{"geo_point_2d": {"lon": -75.6063609999999, "lat": 38.6241600000001}, "geo_shape": {"type": "Feature", "geometry": {"coordinates": [-75.6063609999999, 38.6241600000001], "type": "Point"}, "properties": {}}, "objectid": "13018", "ncesid": "A1700666", "name": "CHILD CRAFT COMPANY", "address": "26396 SEAFORD RD", "city": "SEAFORD", "state": "DE", "zip": "19973", "zip4": "5926", "telephone": "(302) 628-1231", "type": "1", "status": "1", "population": 59, "county": "SUSSEX", "countyfips": "00510", "country": "USA", "latitude": 38.624159999999996, "longitude": -75.606361, "naics_code": "611110", "naics_desc": "ELEMENTARY AND SECONDARY SCHOOLS", "source": "https://nces.ed.gov/surveys/pss/privateschoolsearch/school_list.asp?SchoolID=A1700666", "source_date": "2024-01-31", "val_method": "IMAGERY/OTHER", "val_date": "2022-06-22", "website": "NOT AVAILABLE", "level": "1", "enrollment": "49", "st_grade": "2", "end_grade": "9", "ft_teachers": "10", "shelter_id": "NOT AVAILABLE"},{"geo_point_2d": {"lon": -75.551641, "lat": 39.76257}, "geo_shape": {"type": "Feature", "geometry": {"coordinates": [-75.551641, 39.76257], "type": "Point"}, "properties": {}}, "objectid": "21256", "ncesid": "BB200330", "name": "AUGUSTINE HILLS SCHOOL", "address": "6 STONE HILL RD", "city": "WILMINGTON", "state": "DE", "zip": "19803", "zip4": "NOT AVAILABLE", "telephone": "(302) 594-0754", "type": "4", "status": "1", "population": 6, "county": "NEW CASTLE", "countyfips": "00310", "country": "USA", "latitude": 39.762570000000004, "longitude": -75.55164099999999, "naics_code": "611110", "naics_desc": "ELEMENTARY AND SECONDARY SCHOOLS", "source": "https://nces.ed.gov/surveys/pss/privateschoolsearch/school_list.asp?SchoolID=BB200330", "source_date": "2024-01-31", "val_method": "IMAGERY/OTHER", "val_date": "2022-06-22", "website": "NOT AVAILABLE", "level": "3", "enrollment": "4", "st_grade": "9", "end_grade": "16", "ft_teachers": "2", "shelter_id": "NOT AVAILABLE"},{"geo_point_2d": {"lon": -75.553241, "lat": 39.74292}, "geo_shape": {"type": "Feature", "geometry": {"coordinates": [-75.553241, 39.74292], "type": "Point"}, "properties": {}}, "objectid": "1001", "ncesid": "00249613", "name": "ST PETER CATHEDRAL SCHOOL", "address": "310 W 6TH ST", "city": "WILMINGTON", "state": "DE", "zip": "19801", "zip4": "2198", "telephone": "(302) 656-5234", "type": "1", "status": "1", "population": 94, "county": "NEW CASTLE", "countyfips": "00310", "country": "USA", "latitude": 39.74292, "longitude": -75.553241, "naics_code": "611110", "naics_desc": "ELEMENTARY AND SECONDARY SCHOOLS", "source": "https://nces.ed.gov/surveys/pss/privateschoolsearch/school_list.asp?SchoolID=00249613", "source_date": "2024-01-31", "val_method": "IMAGERY", "val_date": "2010-05-20", "website": "NOT AVAILABLE", "level": "1", "enrollment": "85", "st_grade": "2", "end_grade": "13", "ft_teachers": "9", "shelter_id": "NOT AVAILABLE"},{"geo_point_2d": {"lon": -75.5284109999999, "lat": 39.8282800000001}, "geo_shape": {"type": "Feature", "geometry": {"coordinates": [-75.5284109999999, 39.8282800000001], "type": "Point"}, "properties": {}}, "objectid": "19864", "ncesid": "A9901073", "name": "CHILDREN'S HOUSE MONTESSORI", "address": "2848 GRUBB RD", "city": "WILMINGTON", "state": "DE", "zip": "19810", "zip4": "2353", "telephone": "(302) 529-9259", "type": "2", "status": "1", "population": 19, "county": "NEW CASTLE", "countyfips": "00310", "country": "USA", "latitude": 39.82828, "longitude": -75.528411, "naics_code": "611110", "naics_desc": "ELEMENTARY AND SECONDARY SCHOOLS", "source": "https://nces.ed.gov/surveys/pss/privateschoolsearch/school_list.asp?SchoolID=A9901073", "source_date": "2024-01-31", "val_method": "IMAGERY", "val_date": "2010-05-23", "website": "NOT AVAILABLE", "level": "1", "enrollment": "17", "st_grade": "2", "end_grade": "3", "ft_teachers": "2", "shelter_id": "NOT AVAILABLE"},{"geo_point_2d": {"lon": -75.5503409999999, "lat": 39.7776500000001}, "geo_shape": {"type": "Feature", "geometry": {"coordinates": [-75.5503409999999, 39.7776500000001], "type": "Point"}, "properties": {}}, "objectid": "21255", "ncesid": "BB200329", "name": "ASTRA ZENECA CHILD DEVELOPMENT CENTER", "address": "1920 ROCKLAND RD", "city": "WILMINGTON", "state": "DE", "zip": "19803", "zip4": "NOT AVAILABLE", "telephone": "(302) 651-4666", "type": "7", "status": "1", "population": 13, "county": "NEW CASTLE", "countyfips": "00310", "country": "USA", "latitude": 39.77765, "longitude": -75.55034099999999, "naics_code": "611110", "naics_desc": "ELEMENTARY AND SECONDARY SCHOOLS", "source": "https://nces.ed.gov/surveys/pss/privateschoolsearch/school_list.asp?SchoolID=BB200329", "source_date": "2024-01-31", "val_method": "IMAGERY/OTHER", "val_date": "2022-06-22", "website": "NOT AVAILABLE", "level": "1", "enrollment": "12", "st_grade": "2", "end_grade": "3", "ft_teachers": "1", "shelter_id": "NOT AVAILABLE"},{"geo_point_2d": {"lon": -75.671616227, "lat": 39.598889179}, "geo_shape": {"type": "Feature", "geometry": {"coordinates": [-75.671616227, 39.598889179], "type": "Point"}, "properties": {}}, "objectid": "21459", "ncesid": "BB220149", "name": "RED LION CHRISTIAN ACADEMY", "address": "1390 RED LION RD", "city": "BEAR", "state": "DE", "zip": "19701", "zip4": "1819", "telephone": "(302) 738-3337", "type": "1", "status": "1", "population": 558, "county": "NEW CASTLE", "countyfips": "10003", "country": "USA", "latitude": 39.598889199999995, "longitude": -75.6716162, "naics_code": "611110", "naics_desc": "ELEMENTARY AND SECONDARY SCHOOLS", "source": "https://nces.ed.gov/surveys/pss/privateschoolsearch/school_list.asp?SchoolID=BB220149", "source_date": "2024-01-31", "val_method": "IMAGERY/OTHER", "val_date": "2024-03-15", "website": "NOT AVAILABLE", "level": "3", "enrollment": "535", "st_grade": "3", "end_grade": "17", "ft_teachers": "23", "shelter_id": "NOT AVAILABLE"},{"geo_point_2d": {"lon": -75.487261, "lat": 39.8244100000001}, "geo_shape": {"type": "Feature", "geometry": {"coordinates": [-75.487261, 39.8244100000001], "type": "Point"}, "properties": {}}, "objectid": "1014", "ncesid": "00250061", "name": "CONCORD CHRISTIAN ACADEMY", "address": "2510 MARSH RD", "city": "WILMINGTON", "state": "DE", "zip": "19810", "zip4": "1641", "telephone": "(302) 475-3247", "type": "1", "status": "1", "population": 121, "county": "NEW CASTLE", "countyfips": "00310", "country": "USA", "latitude": 39.82441, "longitude": -75.487261, "naics_code": "611110", "naics_desc": "ELEMENTARY AND SECONDARY SCHOOLS", "source": "https://nces.ed.gov/surveys/pss/privateschoolsearch/school_list.asp?SchoolID=00250061", "source_date": "2024-01-31", "val_method": "IMAGERY/OTHER", "val_date": "2022-06-22", "website": "NOT AVAILABLE", "level": "3", "enrollment": "106", "st_grade": "2", "end_grade": "17", "ft_teachers": "15", "shelter_id": "NOT AVAILABLE"},{"geo_point_2d": {"lon": -75.700611, "lat": 39.7505360000001}, "geo_shape": {"type": "Feature", "geometry": {"coordinates": [-75.700611, 39.7505360000001], "type": "Point"}, "properties": {}}, "objectid": "9994", "ncesid": "A0900723", "name": "LIMESTONE HILLS DAY SCHOOL", "address": "5671 OCHELTREE LN", "city": "WILMINGTON", "state": "DE", "zip": "19808", "zip4": "1285", "telephone": "(302) 239-9041", "type": "7", "status": "1", "population": 16, "county": "NEW CASTLE", "countyfips": "10003", "country": "USA", "latitude": 39.750536000000004, "longitude": -75.700611, "naics_code": "611110", "naics_desc": "ELEMENTARY AND SECONDARY SCHOOLS", "source": "https://nces.ed.gov/surveys/pss/privateschoolsearch/school_list.asp?SchoolID=A0900723", "source_date": "2024-01-31", "val_method": "IMAGERY/OTHER", "val_date": "2024-03-14", "website": "NOT AVAILABLE", "level": "1", "enrollment": "6", "st_grade": "2", "end_grade": "3", "ft_teachers": "10", "shelter_id": "NOT AVAILABLE"},{"geo_point_2d": {"lon": -75.547386344, "lat": 39.7468137540001}, "geo_shape": {"type": "Feature", "geometry": {"coordinates": [-75.547386344, 39.7468137540001], "type": "Point"}, "properties": {}}, "objectid": "15882", "ncesid": "A2100767", "name": "URBAN PROMISE ACADEMY", "address": "1101 N MARKET ST", "city": "WILMINGTON", "state": "DE", "zip": "19801", "zip4": "0000", "telephone": "(202) 679-0849", "type": "1", "status": "1", "population": 33, "county": "NEW CASTLE", "countyfips": "10003", "country": "USA", "latitude": 39.7468138, "longitude": -75.54738630000001, "naics_code": "611110", "naics_desc": "ELEMENTARY AND SECONDARY SCHOOLS", "source": "https://nces.ed.gov/surveys/pss/privateschoolsearch/school_list.asp?SchoolID=A2100767", "source_date": "2024-01-31", "val_method": "IMAGERY/OTHER", "val_date": "2024-03-19", "website": "NOT AVAILABLE", "level": "2", "enrollment": "28", "st_grade": "12", "end_grade": "16", "ft_teachers": "5", "shelter_id": "NOT AVAILABLE"},{"geo_point_2d": {"lon": -75.771988656, "lat": 39.603534075}, "geo_shape": {"type": "Feature", "geometry": {"coordinates": [-75.771988656, 39.603534075], "type": "Point"}, "properties": {}}, "objectid": "8130", "ncesid": "A0300719", "name": "CHRIST THE TEACHER CATHOLIC SCHOOL", "address": "2451 FRAZER RD", "city": "NEWARK", "state": "DE", "zip": "19702", "zip4": "3817", "telephone": "(302) 838-8850", "type": "1", "status": "1", "population": 558, "county": "NEW CASTLE", "countyfips": "10003", "country": "USA", "latitude": 39.6035341, "longitude": -75.77198870000001, "naics_code": "611110", "naics_desc": "ELEMENTARY AND SECONDARY SCHOOLS", "source": "https://nces.ed.gov/surveys/pss/privateschoolsearch/school_list.asp?SchoolID=A0300719", "source_date": "2024-01-31", "val_method": "IMAGERY/OTHER", "val_date": "2024-03-13", "website": "NOT AVAILABLE", "level": "1", "enrollment": "523", "st_grade": "2", "end_grade": "13", "ft_teachers": "35", "shelter_id": "NOT AVAILABLE"},{"geo_point_2d": {"lon": -75.5400509999999, "lat": 39.1366600000001}, "geo_shape": {"type": "Feature", "geometry": {"coordinates": [-75.5400509999999, 39.1366600000001], "type": "Point"}, "properties": {}}, "objectid": "1010", "ncesid": "00249908", "name": "CAPITOL BAPTIST SCHOOL", "address": "401 KESSELRING AVE", "city": "DOVER", "state": "DE", "zip": "19904", "zip4": "4899", "telephone": "(302) 678-9190", "type": "1", "status": "1", "population": 32, "county": "KENT", "countyfips": "00110", "country": "USA", "latitude": 39.13666, "longitude": -75.540051, "naics_code": "611110", "naics_desc": "ELEMENTARY AND SECONDARY SCHOOLS", "source": "https://nces.ed.gov/surveys/pss/privateschoolsearch/school_list.asp?SchoolID=00249908", "source_date": "2024-01-31", "val_method": "IMAGERY/OTHER", "val_date": "2022-06-22", "website": "NOT AVAILABLE", "level": "3", "enrollment": "26", "st_grade": "3", "end_grade": "17", "ft_teachers": "6", "shelter_id": "NOT AVAILABLE"},{"geo_point_2d": {"lon": -75.7154409999999, "lat": 39.59876}, "geo_shape": {"type": "Feature", "geometry": {"coordinates": [-75.7154409999999, 39.59876], "type": "Point"}, "properties": {}}, "objectid": "6587", "ncesid": "01922352", "name": "CARAVEL ACADEMY", "address": "2801 DEL LAWS RD", "city": "BEAR", "state": "DE", "zip": "19701", "zip4": "1799", "telephone": "(302) 834-8938", "type": "1", "status": "1", "population": 1118, "county": "NEW CASTLE", "countyfips": "00310", "country": "USA", "latitude": 39.59876, "longitude": -75.715441, "naics_code": "611110", "naics_desc": "ELEMENTARY AND SECONDARY SCHOOLS", "source": "https://nces.ed.gov/surveys/pss/privateschoolsearch/school_list.asp?SchoolID=01922352", "source_date": "2024-01-31", "val_method": "IMAGERY/OTHER", "val_date": "2022-06-22", "website": "NOT AVAILABLE", "level": "3", "enrollment": "1042", "st_grade": "2", "end_grade": "17", "ft_teachers": "76", "shelter_id": "NOT AVAILABLE"},{"geo_point_2d": {"lon": -75.519799, "lat": 39.150837}, "geo_shape": {"type": "Feature", "geometry": {"coordinates": [-75.519799, 39.150837], "type": "Point"}, "properties": {}}, "objectid": "991", "ncesid": "00249362", "name": "HOLY CROSS SCHOOL", "address": "631 S STATE ST", "city": "DOVER", "state": "DE", "zip": "19901", "zip4": "3529", "telephone": "(302) 674-5784", "type": "1", "status": "1", "population": 314, "county": "KENT", "countyfips": "00110", "country": "USA", "latitude": 39.150836999999996, "longitude": -75.519799, "naics_code": "611110", "naics_desc": "ELEMENTARY AND SECONDARY SCHOOLS", "source": "https://nces.ed.gov/surveys/pss/privateschoolsearch/school_list.asp?SchoolID=00249362", "source_date": "2024-01-31", "val_method": "IMAGERY/OTHER", "val_date": "2009-12-30", "website": "NOT AVAILABLE", "level": "1", "enrollment": "295", "st_grade": "2", "end_grade": "13", "ft_teachers": "19", "shelter_id": "NOT AVAILABLE"},{"geo_point_2d": {"lon": -75.261201, "lat": 38.5446700000001}, "geo_shape": {"type": "Feature", "geometry": {"coordinates": [-75.261201, 38.5446700000001], "type": "Point"}, "properties": {}}, "objectid": "7474", "ncesid": "A0101631", "name": "LIGHTHOUSE CHRISTIAN SCHOOL", "address": "28157 LIGHTHOUSE XING", "city": "DAGSBORO", "state": "DE", "zip": "19939", "zip4": "4436", "telephone": "(302) 732-3309", "type": "1", "status": "1", "population": 156, "county": "SUSSEX", "countyfips": "00510", "country": "USA", "latitude": 38.54467, "longitude": -75.261201, "naics_code": "611110", "naics_desc": "ELEMENTARY AND SECONDARY SCHOOLS", "source": "https://nces.ed.gov/surveys/pss/privateschoolsearch/school_list.asp?SchoolID=A0101631", "source_date": "2024-01-31", "val_method": "IMAGERY", "val_date": "2010-05-24", "website": "NOT AVAILABLE", "level": "1", "enrollment": "138", "st_grade": "2", "end_grade": "13", "ft_teachers": "18", "shelter_id": "NOT AVAILABLE"},{"geo_point_2d": {"lon": -75.488931, "lat": 39.8032700000001}, "geo_shape": {"type": "Feature", "geometry": {"coordinates": [-75.488931, 39.8032700000001], "type": "Point"}, "properties": {}}, "objectid": "997", "ncesid": "00249544", "name": "ST EDMOND'S ACADEMY", "address": "2120 VEALE RD", "city": "WILMINGTON", "state": "DE", "zip": "19810", "zip4": "4199", "telephone": "(302) 475-5370", "type": "1", "status": "1", "population": 181, "county": "NEW CASTLE", "countyfips": "00310", "country": "USA", "latitude": 39.80327, "longitude": -75.48893100000001, "naics_code": "611110", "naics_desc": "ELEMENTARY AND SECONDARY SCHOOLS", "source": "https://nces.ed.gov/surveys/pss/privateschoolsearch/school_list.asp?SchoolID=00249544", "source_date": "2024-01-31", "val_method": "IMAGERY/OTHER", "val_date": "2009-12-30", "website": "NOT AVAILABLE", "level": "1", "enrollment": "160", "st_grade": "2", "end_grade": "13", "ft_teachers": "21", "shelter_id": "NOT AVAILABLE"},{"geo_point_2d": {"lon": -75.615973493, "lat": 39.767785072}, "geo_shape": {"type": "Feature", "geometry": {"coordinates": [-75.615973493, 39.767785072], "type": "Point"}, "properties": {}}, "objectid": "1008", "ncesid": "00249828", "name": "THE TATNALL SCHOOL", "address": "1501 BARLEY MILL RD", "city": "WILMINGTON", "state": "DE", "zip": "19807", "zip4": "2299", "telephone": "(302) 998-2292", "type": "1", "status": "1", "population": 542, "county": "NEW CASTLE", "countyfips": "10003", "country": "USA", "latitude": 39.7677851, "longitude": -75.6159735, "naics_code": "611110", "naics_desc": "ELEMENTARY AND SECONDARY SCHOOLS", "source": "https://nces.ed.gov/surveys/pss/privateschoolsearch/school_list.asp?SchoolID=00249828", "source_date": "2024-01-31", "val_method": "IMAGERY/OTHER", "val_date": "2024-03-20", "website": "NOT AVAILABLE", "level": "3", "enrollment": "487", "st_grade": "2", "end_grade": "17", "ft_teachers": "55", "shelter_id": "NOT AVAILABLE"}]